[
  {
    "facility": "ARBOR HILLS LANDFILL, INC",
    "remainingCapacity": 7591322,
    "capacityUsedFY2024": 2184355,
    "projectedYearsRemaining": 3,
    "calculatedYearsRemaining": 3,
    "latitude": 42.406611,
    "longitude": -83.556461,
    "county": "Wayne",
    "color": "#ea4335"
  },
  {
    "facility": "AUTUMN HILLS RECYCLING AND DISPOSAL FACILITY",
    "remainingCapacity": 20099700,
    "capacityUsedFY2024": 483385,
    "projectedYearsRemaining": 35,
    "calculatedYearsRemaining": 42,
    "latitude": 42.780660,
    "longitude": -85.92072,
    "county": "Ottawa"
  },
  {
    "facility": "BRENT RUN LANDFILL",
    "remainingCapacity": 12232129,
    "capacityUsedFY2024": 755484,
    "projectedYearsRemaining": 30,
    "calculatedYearsRemaining": 16,
    "latitude": 43.176465,
    "longitude": -83.84363210190989,
    "county": "Genesee"  },
  {
    "facility": "C & C EXPANDED SANITARY LANDFILL",
    "remainingCapacity": 38837205,
    "capacityUsedFY2024": 575432,
    "projectedYearsRemaining": 74,
    "calculatedYearsRemaining": 67,
    "latitude": 42.361060,
    "longitude": -85.0083,
    "county": "Calhoun"
  },
  {
    "facility": "CARLETON FARMS LANDFILL",
    "remainingCapacity": 68777611,
    "capacityUsedFY2024": 2043483,
    "projectedYearsRemaining": 34,
    "calculatedYearsRemaining": 34,
    "latitude": 42.093590,
    "longitude": -83.42138,
    "county": "Wayne"
  },
  {
    "facility": "CENTRAL SANITARY LANDFILL",
    "remainingCapacity": 7053296,
    "capacityUsedFY2024": 203985,
    "projectedYearsRemaining": 35,
    "calculatedYearsRemaining": 35,
    "latitude": 43.337670,
    "longitude": -85.51732,
    "county": "Montcalm"
  },
  {
    "facility": "CITIZENS DISPOSAL INC",
    "remainingCapacity": 4637569,
    "capacityUsedFY2024": 396669,
    "projectedYearsRemaining": 11,
    "calculatedYearsRemaining": 12,
    "latitude": 42.924780,
    "longitude": -83.7243,
    "county": "Genesee"
  },
  {
    "facility": "CITY ENVIRONMENTAL SERVICES INC OF WATERS",
    "remainingCapacity": 14329299,
    "capacityUsedFY2024": 263165,
    "projectedYearsRemaining": 206,
    "calculatedYearsRemaining": 54,
    "latitude": 44.849630,
    "longitude": -84.66703,
    "county": "Crawford"  },
  {
    "facility": "CITY OF MIDLAND SANITARY LANDFILL",
    "remainingCapacity": 6029312,
    "capacityUsedFY2024": 166304,
    "projectedYearsRemaining": 36,
    "calculatedYearsRemaining": 36,
    "latitude": 43.626910,
    "longitude": -84.17395,
    "county": "Midland"  },
  {
    "facility": "COUNTY OF MUSKEGON - SOLID WASTE LANDFILL",
    "remainingCapacity": 4569913,
    "capacityUsedFY2024": 161656,
    "projectedYearsRemaining": 20,
    "calculatedYearsRemaining": 28,
    "latitude": 43.235180,
    "longitude": -86.01342,
    "county": "Muskegon"
  },
  {
    "facility": "DAFTER SANITARY LANDFILL",
    "remainingCapacity": 3031049,
    "capacityUsedFY2024": 57988,
    "projectedYearsRemaining": 34,
    "calculatedYearsRemaining": 52,
    "latitude": 46.332010,
    "longitude": -84.44671,
    "county": "Chippewa"  },
  {
    "facility": "DELTA COUNTY LANDFILL",
    "remainingCapacity": 271957,
    "capacityUsedFY2024": 70883,
    "projectedYearsRemaining": 105,
    "calculatedYearsRemaining": 4,
    "latitude": 45.716370,
    "longitude": -87.12592,
    "county": "Delta",
    "color": "#ea4335"
  },
  {
    "facility": "EAGLE VALLEY RECYCLE & DISPOSAL FACILITY",
    "remainingCapacity": 5551105,
    "capacityUsedFY2024": 874580,
    "projectedYearsRemaining": 8,
    "calculatedYearsRemaining": 6,
    "latitude": 42.722930,
    "longitude": -83.2536,
    "county": "Oakland",
    "color": "#ea4335"
  },
  {
    "facility": "EVER-GREEN LANDFILL AND RECYCLING CENTER, LLC",
    "remainingCapacity": 407916,
    "capacityUsedFY2024": 11330,
    "projectedYearsRemaining": 34,
    "calculatedYearsRemaining": 36,
    "latitude": 46.813520,
    "longitude": -89.18799,
    "county": "Ontonagon"
  },
  {
    "facility": "GFL NORTH MICHIGAN LANDFILL LLC",
    "remainingCapacity": 871763,
    "capacityUsedFY2024": 111477,
    "projectedYearsRemaining": 9,
    "calculatedYearsRemaining": 8,
    "latitude": 45.282350,
    "longitude": -84.2192,
    "county": "Presque Isle"
  },
  {
    "facility": "GLENS SANITARY LANDFILL",
    "remainingCapacity": 17590764,
    "capacityUsedFY2024": 54650,
    "projectedYearsRemaining": 321,
    "calculatedYearsRemaining": 322,
    "latitude": 44.788840,
    "longitude": -85.84796,
    "county": "Leelanau"  },
  {
    "facility": "GRANGER GRAND RIVER LANDFILL",
    "remainingCapacity": 5457660,
    "capacityUsedFY2024": 140554,
    "projectedYearsRemaining": 38,
    "calculatedYearsRemaining": 39,
    "latitude": 42.790360,
    "longitude": -84.69512,
    "county": "Clinton"
  },
  {
    "facility": "GRANGER WOOD STREET LANDFILL",
    "remainingCapacity": 17182435,
    "capacityUsedFY2024": 572596,
    "projectedYearsRemaining": 30,
    "calculatedYearsRemaining": 30,
    "latitude": 42.769680,
    "longitude": -84.52319,
    "county": "Ingham"
  },
  {
    "facility": "HIAWATHA SHORES LANDFILL",
    "remainingCapacity": 1582699,
    "capacityUsedFY2024": 32554,
    "projectedYearsRemaining": 64,
    "calculatedYearsRemaining": 49,
    "latitude": 46.065360,
    "longitude": -86.06155,
    "county": "Schoolcraft"  },
  {
    "facility": "HURON LANDFILL CORP. – DBA HURON LANDFILL",
    "remainingCapacity": 1892182,
    "capacityUsedFY2024": 61008,
    "projectedYearsRemaining": 19,
    "calculatedYearsRemaining": 31,
    "latitude": 43.717330,
    "longitude": -83.05799,
    "county": "Huron"
  },
  {
    "facility": "K AND W LANDFILL INC",
    "remainingCapacity": 722516,
    "capacityUsedFY2024": 119580,
    "projectedYearsRemaining": 6,
    "calculatedYearsRemaining": 6,
    "latitude": 46.788160,
    "longitude": -89.12365,
    "county": "Ontonagon",
    "color": "#ea4335"
  },
  {
    "facility": "LIBERTY ENVIRONMENTALISTS LANDFILL",
    "remainingCapacity": 2097466,
    "capacityUsedFY2024": 46149,
    "projectedYearsRemaining": 10,
    "calculatedYearsRemaining": 45,
    "latitude": 42.147810,
    "longitude": -84.36871,
    "county": "Jackson"  },
  {
    "facility": "MANISTEE COUNTY LANDFILL INC",
    "remainingCapacity": 7617704,
    "capacityUsedFY2024": 156057,
    "projectedYearsRemaining": 49,
    "calculatedYearsRemaining": 49,
    "latitude": 44.191170,
    "longitude": -86.26459,
    "county": "Manistee"  },
  {
    "facility": "MARQUETTE COUNTY SOLID WASTE MANAGEMENT AUTHORITY",
    "remainingCapacity": 4877600,
    "capacityUsedFY2024": 103000,
    "projectedYearsRemaining": 57,
    "calculatedYearsRemaining": 47,
    "latitude": 46.496790,
    "longitude": 87.46552,
    "county": "Marquette"  },
  {
    "facility": "MATLIN ROAD LANDFILL",
    "remainingCapacity": 251575,
    "capacityUsedFY2024": 34172,
    "projectedYearsRemaining": 92,
    "calculatedYearsRemaining": 7,
    "latitude": 42.071939,
    "longitude": -83.38171290167636,
    "county": "Monroe"
  },
  {
    "facility": "MCGILL ROAD LANDFILL",
    "remainingCapacity": 60417,
    "capacityUsedFY2024": 63174,
    "projectedYearsRemaining": 1,
    "calculatedYearsRemaining": 1,
    "latitude": 42.288290,
    "longitude": -84.36934,
    "county": "Jackson",
    "color": "#ea4335"
  },
  {
    "facility": "MICHIGAN ENVIRONS INC",
    "remainingCapacity": 1749498,
    "capacityUsedFY2024": 53009,
    "projectedYearsRemaining": 29,
    "calculatedYearsRemaining": 33,
    "latitude": 45.174260,
    "longitude": -87.6383,
    "county": "Menominee"
  },
  {
    "facility": "MONTMORENCY-OSCODA-ALPENA SWMA",
    "remainingCapacity": 1517378,
    "capacityUsedFY2024": 91437,
    "projectedYearsRemaining": 17,
    "calculatedYearsRemaining": 17,
    "latitude": 44.942430,
    "longitude": -84.12951,
    "county": "Montmorency"
  },
  {
    "facility": "NIAGARA DEVELOPMENT LLC",
    "remainingCapacity": 1808856,
    "capacityUsedFY2024": 5235,
    "projectedYearsRemaining": 346,
    "calculatedYearsRemaining": 346,
    "latitude": 45.782730,
    "longitude": -87.9725,
    "county": "Dickinson"  },
  {
    "facility": "NORTHERN OAKS RECYCLING AND DISPOSAL FACILITY",
    "remainingCapacity": 5592701,
    "capacityUsedFY2024": 113360,
    "projectedYearsRemaining": 56,
    "calculatedYearsRemaining": 49,
    "latitude": 43.995000,
    "longitude": -84.7979,
    "county": "Clare"  },
  {
    "facility": "OAKLAND HEIGHTS DEVELOPMENT INC",
    "remainingCapacity": 230386,
    "capacityUsedFY2024": 163197,
    "projectedYearsRemaining": 1,
    "calculatedYearsRemaining": 1,
    "latitude": 42.704490,
    "longitude": -83.24852,
    "county": "Oakland",
    "color": "#ea4335"
  },
  {
    "facility": "ORCHARD HILL SANITARY LANDFILL",
    "remainingCapacity": 14737554,
    "capacityUsedFY2024": 287875,
    "projectedYearsRemaining": 51,
    "calculatedYearsRemaining": 51,
    "latitude": 42.171260,
    "longitude": -86.28226,
    "county": "Berrien"  },
  {
    "facility": "OTTAWA COUNTY FARMS LANDFILL",
    "remainingCapacity": 30191725,
    "capacityUsedFY2024": 751656,
    "projectedYearsRemaining": 40,
    "calculatedYearsRemaining": 40,
    "latitude": 43.052160,
    "longitude": -85.95667,
    "county": "Ottawa"  },
  {
    "facility": "PEOPLES LANDFILL INC",
    "remainingCapacity": 4001361,
    "capacityUsedFY2024": 246953,
    "projectedYearsRemaining": 15,
    "calculatedYearsRemaining": 16,
    "latitude": 43.280100,
    "longitude": -83.87051,
    "county": "Saginaw"
  },
  {
    "facility": "PINE TREE ACRES INC",
    "remainingCapacity": 25820172,
    "capacityUsedFY2024": 3584139,
    "projectedYearsRemaining": 8,
    "calculatedYearsRemaining": 7,
    "latitude": 42.764970,
    "longitude": -82.74562,
    "county": "Macomb"
  },
  {
    "facility": "PITSCH SANITARY LANDFILL",
    "remainingCapacity": 991994,
    "capacityUsedFY2024": 293589,
    "projectedYearsRemaining": 17,
    "calculatedYearsRemaining": 3,
    "latitude": 43.103470,
    "longitude": -85.17464,
    "county": "Ionia",
    "color": "#ea4335"
  },
  {
    "facility": "RIVERVIEW LAND PRESERVE",
    "remainingCapacity": 5811058,
    "capacityUsedFY2024": 516434,
    "projectedYearsRemaining": 11,
    "calculatedYearsRemaining": 11,
    "latitude": 42.157720,
    "longitude": -83.21061,
    "county": "Wayne"
  },
  {
    "facility": "SAUK TRAIL HILLS LANDFILL",
    "remainingCapacity": 3035817,
    "capacityUsedFY2024": 438525,
    "projectedYearsRemaining": 7,
    "calculatedYearsRemaining": 7,
    "latitude": 42.267280,
    "longitude": -83.45594,
    "county": "Wayne"
  },
  {
    "facility": "SC HOLDINGS, INC.",
    "remainingCapacity": 1607776,
    "capacityUsedFY2024": 59120,
    "projectedYearsRemaining": 30,
    "calculatedYearsRemaining": 27,
    "latitude": 42.681540,
    "longitude": -85.2908,
    "county": "Barry"
  },
  {
    "facility": "SMITHS CREEK LANDFILL",
    "remainingCapacity": 16365,
    "capacityUsedFY2024": 233353,
    "projectedYearsRemaining": 70,
    "calculatedYearsRemaining": "0",
    "latitude": 42.917635,
    "longitude": -82.593029,
    "county": "St Clair",
    "color": "#ea4335"
  },
  {
    "facility": "SOUTH KENT LANDFILL",
    "remainingCapacity": 2798711,
    "capacityUsedFY2024": 326951,
    "projectedYearsRemaining": 6,
    "calculatedYearsRemaining": 9,
    "latitude": 42.778380,
    "longitude": -85.68094,
    "county": "Kent"
  },
  {
    "facility": "SOUTHEAST BERRIEN COUNTY LANDFILL",
    "remainingCapacity": 3015836,
    "capacityUsedFY2024": 309401,
    "projectedYearsRemaining": 12,
    "calculatedYearsRemaining": 10,
    "latitude": 41.810169,
    "longitude": -86.330867,
    "county": "Berrien"
  },
  {
    "facility": "TRI-CITY RECYCLING AND DISPOSAL FACILITY",
    "remainingCapacity": 16518455,
    "capacityUsedFY2024": 37578,
    "projectedYearsRemaining": 528,
    "calculatedYearsRemaining": 440,
    "latitude": 43.436790,
    "longitude": -82.73179,
    "county": "Sanilac"  },
  {
    "facility": "VENICE PARK RECYCLING & DISPOSAL FACIL",
    "remainingCapacity": 6023633,
    "capacityUsedFY2024": 463119,
    "projectedYearsRemaining": 16,
    "calculatedYearsRemaining": 13,
    "latitude": 42.985030,
    "longitude": -83.9801,
    "county": "Shiawassee"
  },
  {
    "facility": "VIENNA JUNCTION INDUSTRIAL PARK SANITARY LANDFILL",
    "remainingCapacity": 1853474,
    "capacityUsedFY2024": 441453,
    "projectedYearsRemaining": 4,
    "calculatedYearsRemaining": 4,
    "latitude": 41.731560,
    "longitude": -83.5065,
    "county": "Monroe",
    "color": "#ea4335"
  },
  {
    "facility": "WESTSIDE RECYCLING & DISPOSAL FACILITY",
    "remainingCapacity": 33757617,
    "capacityUsedFY2024": 386140,
    "projectedYearsRemaining": 101,
    "calculatedYearsRemaining": 87,
    "latitude": 41.919080,
    "longitude": -85.680370,
    "county": "St Joseph"  },
  {
    "facility": "WEXFORD COUNTY LANDFILL, LLC",
    "remainingCapacity": 15820706,
    "capacityUsedFY2024": 366293,
    "projectedYearsRemaining": 46,
    "calculatedYearsRemaining": 43,
    "latitude": 44.353270,
    "longitude": -85.396983,
    "county": "Wexford"  },
  {
    "facility": "WHITEFEATHER LANDFILL - REPUBLIC SERVICES OF PINCONNING",
    "remainingCapacity": 794195,
    "capacityUsedFY2024": 170961,
    "projectedYearsRemaining": 5,
    "calculatedYearsRemaining": 5,
    "latitude": 43.896140,
    "longitude": -83.94979,
    "county": "Bay",
    "color": "#ea4335"
  },
  {
    "facility": "WOOD ISLAND WASTE MANAGEMENT INC",
    "remainingCapacity": 1574147,
    "capacityUsedFY2024": 68021,
    "projectedYearsRemaining": 41,
    "calculatedYearsRemaining": 23,
    "latitude": 46.376300,
    "longitude": -86.59535,
    "county": "Alger"
  },
  {
    "facility": "WOODLAND MEADOWS",
    "remainingCapacity": 45644000,
    "capacityUsedFY2024": 2940000,
    "projectedYearsRemaining": 16,
    "calculatedYearsRemaining": 16,
    "latitude": 42.264940,
    "longitude": -83.43365,
    "county": "Wayne"
  }
]
